,City,Latitude,Longitude,Max Temp,Humidity,Cloudiness,Wind Speed,Country,Date
0,Forest Grove,45.5198,-123.1107,65.17,67,26,5.95,US,1592546400
1,Arraial do Cabo,-22.9661,-42.0278,70.02,77,83,13.51,BR,1592546400
2,Albany,42.6001,-73.9662,67.12,94,59,2.57,US,1592546400
3,Broome,42.2506,-75.833,62.58,94,13,3.29,US,1592546400
4,Hilo,19.7297,-155.09,76.17,65,87,2.95,US,1592546400
5,Chokurdakh,70.6333,147.9167,89.67,19,57,4.94,RU,1592546400
6,Bredy,52.4153,60.3411,61.57,40,6,11.95,RU,1592546400
7,Waipawa,-41.4122,175.5153,53.26,99,100,7.31,NZ,1592546400
8,Kruisfontein,-34.0033,24.7314,57.22,42,0,15.41,ZA,1592546400
9,Ushuaia,-54.8,-68.3,33.22,84,60,5.39,AR,1592546400
10,Punta Arenas,-53.15,-70.9167,37.56,93,99,0.63,CL,1592546400
11,Grakhovo,56.0502,51.9676,63.66,53,2,3.44,RU,1592546400
12,Klaksvík,62.2266,-6.589,49.75,95,65,7.49,FO,1592546400
13,Kapaa,22.0752,-159.319,77.88,72,44,14.76,US,1592546400
14,Saint-Philippe,-21.3585,55.7679,68.09,69,88,16.42,RE,1592546400
15,Vardø,70.3705,31.1107,44.47,72,74,28.34,NO,1592546400
16,Laguna,38.421,-121.4238,76.26,29,28,6.02,US,1592546400
17,Camacha,33.0833,-16.3333,66.11,89,11,6.8,PT,1592546400
18,Avera,33.194,-82.5271,69.28,78,20,4.79,US,1592546400
19,Bredasdorp,-34.5322,20.0403,56.32,51,0,8.3,ZA,1592546400
20,Bambous Virieux,-20.3428,57.7575,71.49,74,87,20.33,MU,1592546400
21,Birin,26.8865,88.0718,67.64,100,100,3.47,NP,1592546400
22,Tiksi,71.6872,128.8694,56.14,65,100,3.18,RU,1592546400
23,San Cristobal,7.7669,-72.225,65.23,90,100,4.63,VE,1592546400
24,Hobart,-42.8794,147.3294,52.56,73,100,2.86,AU,1592546400
25,Mehamn,71.0357,27.8492,42.6,79,87,24.45,NO,1592546400
26,Buraidah,26.326,43.975,94.35,19,68,3.67,SA,1592546400
27,Oktyabr'skoye,43.0645,44.7417,75.99,68,94,3.89,RU,1592546400
28,Norman Wells,65.282,-126.8329,73.2,48,64,5.19,CA,1592546400
29,Busselton,-33.65,115.3333,58.24,61,83,4.56,AU,1592546400
30,Butaritari,3.0707,172.7902,83.08,70,68,7.11,KI,1592546400
31,Luau,-10.7073,22.2247,55.58,64,56,6.96,AO,1592546400
32,Tafresh,34.692,50.013,80.26,18,0,4.27,IR,1592546400
33,Koróni,36.8,21.95,72.77,77,0,11.07,GR,1592546400
34,Lebu,-37.6167,-73.65,52.81,87,66,9.86,CL,1592546400
35,Mundo Nuevo (Ojo de Agua),18.7,-95.5,81.12,80,58,9.1,MX,1592546400
36,New Norfolk,-42.7826,147.0587,50.83,77,100,1.52,AU,1592546400
37,Ballina,-28.8667,153.5667,64.09,73,59,8.25,AU,1592546400
38,La Santisima Trinidad,-14.8333,-64.9,75.38,73,70,3.29,BO,1592546400
39,Sobolevo,54.4299,31.8996,73.11,87,4,5.48,RU,1592546400
40,Rikitea,-23.1203,-134.9692,74.97,87,100,16.6,PF,1592546400
41,Havre-St-Pierre,50.2334,-63.5986,58.84,90,82,7.61,CA,1592546400
42,Aswān,24.0934,32.907,86.92,26,0,20.69,EG,1592546400
43,Port Hedland,-20.3167,118.5667,82.9,34,0,11.63,AU,1592546400
44,Nizwá,22.9333,57.5333,101.41,26,19,4.9,OM,1592546400
45,Lesce,46.3611,14.1578,61.54,83,69,1.92,SI,1592546400
46,Kampot,10.6167,104.1833,89.42,64,56,7.85,KH,1592546400
47,George Town,5.4112,100.3354,86.2,70,60,6.82,MY,1592546400
48,Baoro,5.6667,15.9667,68.76,93,100,2.98,CF,1592546400
49,Auki,-8.7676,160.7034,83.57,76,78,2.46,SB,1592546400
50,Kahului,20.8947,-156.47,77.18,61,52,15.17,US,1592546400
51,Thompson,55.7435,-97.8558,41.04,94,95,11.03,CA,1592546400
52,Jamestown,42.097,-79.2353,62.8,84,28,5.53,US,1592546400
53,Yerbogachën,61.2767,108.0108,71.78,35,32,1.88,RU,1592546400
54,Denpasar,-8.65,115.2167,83.1,73,51,13.06,ID,1592546400
55,Yumen,40.2833,97.2,91.96,12,69,10.85,CN,1592546400
56,Rohri,27.6922,68.8951,110.35,32,0,20.83,PK,1592546400
57,Mar del Plata,-38.0023,-57.5575,50.59,78,0,12.35,AR,1592546400
58,Tuktoyaktuk,69.4541,-133.0374,42.44,85,39,9.84,CA,1592546400
59,Örnsköldsvik,63.2909,18.7153,68.5,64,0,4.99,SE,1592546400
60,Kalemie,-5.9475,29.1947,74.98,67,35,10.07,CD,1592546400
61,Daru,-9.0763,143.2092,78.64,83,100,15.88,PG,1592546400
62,Deputatsky,69.3,139.9,81.73,24,23,7.96,RU,1592546400
63,Vaini,-21.2,-175.2,74.03,84,41,20.8,TO,1592546400
64,Najrān,17.4924,44.1277,92.66,15,49,4.43,SA,1592546400
65,Charters Towers,-20.1,146.2667,70.41,59,73,11.72,AU,1592546400
66,Lodwar,3.1191,35.5973,81.93,55,45,7.47,KE,1592546400
67,Marawi,7.9986,124.2928,81.55,81,69,4.25,PH,1592546400
68,Erenhot,43.6475,111.9767,87.93,23,0,9.13,CN,1592546400
69,Saldanha,-33.0117,17.9442,64.47,51,0,18.05,ZA,1592546400
70,Caborca,30.5838,-111.101,78.28,17,0,1.5,MX,1592546400
71,Mataura,-46.1927,168.8643,42.01,80,0,1.61,NZ,1592546400
72,Hithadhoo,-0.6,73.0833,84.54,74,77,4.12,MV,1592546400
73,Kieta,-6.2167,155.6333,82.99,77,47,2.75,PG,1592546400
74,Qūchān,37.106,58.5095,78.87,20,0,9.75,IR,1592546400
75,Puerto Ayora,-0.7393,-90.3518,70.61,87,93,11.56,EC,1592546400
76,Labuhan,-6.8844,112.2051,87.42,65,52,2.89,ID,1592546400
77,Constitución,-35.3333,-72.4167,55.58,91,100,8.75,CL,1592546400
78,Campos Novos,-27.4017,-51.225,56.98,98,58,3.44,BR,1592546400
79,Niksar,40.5917,36.9517,68.63,71,35,4.5,TR,1592546400
80,Hermanus,-34.4187,19.2345,61.79,48,0,10.76,ZA,1592546400
81,Ponta Delgada,37.7333,-25.6667,63.72,82,41,7.2,PT,1592546400
82,Doha,25.2867,51.5333,102.69,24,16,20.36,QA,1592546400
83,Alice Springs,-23.7,133.8833,78.37,22,0,5.5,AU,1592546400
84,Tuatapere,-46.1333,167.6833,41.68,71,0,2.35,NZ,1592546400
85,Iqaluit,63.7506,-68.5145,34.56,85,73,2.21,CA,1592546400
86,Yellowknife,62.456,-114.3525,59.58,42,11,8.88,CA,1592546400
87,Whitehorse,60.7161,-135.0538,55.27,63,78,8.41,CA,1592546400
88,Bluff,-46.6,168.3333,45.03,70,0,8.72,NZ,1592546400
89,Tura,25.5198,90.2201,85.98,80,85,4.54,IN,1592546400
90,Bandarbeyla,9.4942,50.8122,88.2,53,26,28.25,SO,1592546400
91,Cabo San Lucas,22.8909,-109.9124,80.76,45,59,13.33,MX,1592546400
92,São Filipe,14.8961,-24.4956,79.77,63,0,6.67,CV,1592546400
93,Provideniya,64.3833,-173.3,60.28,56,55,2.51,RU,1592546400
94,Dhārchula,29.85,80.5333,82.92,54,85,6.08,IN,1592546400
95,Beitbridge,-22.2167,30.0,57.43,74,100,7.83,ZW,1592546400
96,Fernandina Beach,30.6697,-81.4626,77.22,91,46,5.19,US,1592546400
97,Longyearbyen,78.2186,15.6401,42.1,71,45,9.4,SJ,1592546400
98,Mahébourg,-20.4081,57.7,71.1,74,87,20.07,MU,1592546400
99,Torit,4.4133,32.5678,74.16,90,62,1.1,SS,1592546400
100,Alyangula,-13.8483,136.4192,82.13,66,27,13.82,AU,1592546400
101,Weiser,44.251,-116.9693,62.04,52,1,1.36,US,1592546400
102,Oruzgan,32.8333,66.0,85.59,16,0,1.05,AF,1592546400
103,Saint George,37.1041,-113.5841,74.7,19,2,5.88,US,1592546400
104,Sládkovičovo,48.2014,17.6385,61.79,83,97,13.6,SK,1592546400
105,Richards Bay,-28.783,32.0377,59.68,79,90,5.14,ZA,1592546400
106,Itoman,26.1247,127.6694,85.66,83,87,17.49,JP,1592546400
107,Mpongwe,-13.5091,28.155,55.98,85,0,8.66,ZM,1592546400
108,Sheridan,44.8333,-106.9173,47.88,78,14,3.6,US,1592546400
109,Harper,4.375,-7.7169,76.93,84,80,7.23,LR,1592546400
110,Yulara,-25.2406,130.9889,76.37,21,0,5.3,AU,1592546400
111,Aylmer,42.7668,-80.983,64.35,84,11,4.16,CA,1592546400
112,Upernavik,72.7868,-56.1549,34.74,87,0,11.05,GL,1592546400
113,Hay River,60.8156,-115.7999,66.25,56,10,7.72,CA,1592546400
114,Anadyr,64.75,177.4833,61.18,45,100,13.78,RU,1592546400
115,Pathein,16.7833,94.7333,83.39,79,100,5.01,MM,1592546400
116,Atuona,-9.8,-139.0333,80.26,77,5,13.13,PF,1592546400
117,Arkhangelsk,64.5401,40.5433,61.84,97,95,6.35,RU,1592546400
118,Helena,46.5927,-112.0361,48.72,75,40,4.29,US,1592546400
119,Qaanaaq,77.484,-69.3632,28.42,92,10,0.38,GL,1592546400
120,Khatanga,71.9667,102.5,62.96,48,79,13.6,RU,1592546400
121,Beidao,34.5686,105.8933,86.61,41,84,12.68,CN,1592546400
122,Kaitangata,-46.2817,169.8464,45.88,80,7,6.11,NZ,1592546400
123,Lagos,6.5833,3.75,74.23,95,59,0.78,NG,1592546400
124,Nikolskoye,59.7035,30.7861,77.13,68,11,1.72,RU,1592546400
125,Batemans Bay,-35.7167,150.1833,67.05,54,43,5.01,AU,1592546400
126,Manaure,11.7751,-72.4445,81.61,74,48,17.98,CO,1592546400
127,Dicabisagan,17.0818,122.4157,88.16,66,1,9.26,PH,1592546400
128,Berezovyy,51.6667,135.7,58.46,63,95,6.73,RU,1592546400
129,Nome,64.5011,-165.4064,55.67,69,65,6.42,US,1592546400
130,Eureka,40.8021,-124.1637,57.02,90,57,1.36,US,1592546400
131,Avarua,-21.2078,-159.775,71.98,73,45,21.45,CK,1592546400
132,Pontianak,-0.0333,109.3333,85.84,71,100,7.54,ID,1592546400
133,Daşoguz,41.8363,59.9666,90.77,15,6,3.91,TM,1592546400
134,Esperance,-33.8667,121.9,59.99,66,54,16.78,AU,1592546400
135,Užventis,55.7803,22.6547,71.22,89,47,5.7,LT,1592546400
136,Davila,18.4726,120.5763,89.29,70,13,7.23,PH,1592546400
137,Nantucket,41.2835,-70.0995,64.53,92,72,13.67,US,1592546400
138,Assiniboia,49.6334,-105.9845,47.26,79,83,8.14,CA,1592546400
139,Oddur,4.1213,43.8894,78.82,72,48,22.73,SO,1592546400
140,Senno,59.5336,33.9167,76.14,70,10,4.7,RU,1592546400
141,Rome,43.2128,-75.4557,64.0,93,21,3.58,US,1592546400
142,Aksha,50.2814,113.2867,80.53,41,68,1.32,RU,1592546400
143,Tasiilaq,65.6145,-37.6368,38.62,87,100,19.04,GL,1592546400
144,Umm Kaddadah,13.6017,26.6876,85.71,48,76,7.49,SD,1592546400
145,Sur,22.5667,59.5289,94.59,53,2,5.93,OM,1592546400
146,Burnie,-41.0667,145.9167,56.52,78,100,6.55,AU,1592546400
147,Tautira,-17.7333,-149.15,80.19,80,60,2.19,PF,1592546400
148,Otane,-39.8833,176.6333,54.82,91,95,5.48,NZ,1592546400
149,Trzebinia,50.1593,19.4697,61.86,98,86,4.47,PL,1592546400
150,Talnakh,69.4865,88.3972,47.17,57,100,11.92,RU,1592546400
151,Tiznit Province,29.5833,-9.5,61.38,84,18,1.12,MA,1592546400
152,Port Lincoln,-34.7333,135.8667,60.75,63,19,21.36,AU,1592546400
153,Ardakān,32.31,54.0175,95.85,11,19,3.74,IR,1592546400
154,Kaeo,-35.1,173.7833,52.43,38,71,6.17,NZ,1592546400
155,Caravelas,-17.7125,-39.2481,72.72,89,45,9.62,BR,1592546400
156,Saskylakh,71.9167,114.0833,75.65,36,88,6.46,RU,1592546400
157,Kasempa,-13.4584,25.8338,53.91,78,0,7.94,ZM,1592546400
158,San Patricio,19.2167,-104.7,77.49,74,6,2.59,MX,1592546400
159,Gambēla,8.25,34.5833,75.61,87,100,0.85,ET,1592546400
160,Castro,-24.7911,-50.0119,57.58,94,34,5.73,BR,1592546400
161,Jadu,31.953,12.0261,86.29,14,0,23.47,LY,1592546400
162,Waingapu,-9.6567,120.2641,84.2,62,41,19.42,ID,1592546400
163,Samarai,-10.6167,150.6667,79.45,84,40,16.69,PG,1592546400
164,Sørland,67.667,12.6934,48.36,81,0,15.97,NO,1592546400
165,Saint-Pierre,-21.3393,55.4781,69.96,67,84,16.75,RE,1592546400
166,Egvekinot,66.3167,-179.1667,63.7,35,0,4.85,RU,1592546400
167,Coquimbo,-29.9533,-71.3436,56.43,72,92,6.2,CL,1592546400
168,Pisco,-13.7,-76.2167,61.25,82,47,0.6,PE,1592546400
169,Clyde River,70.4692,-68.5914,31.77,98,93,2.26,CA,1592546400
170,Katobu,-4.9408,122.5276,79.2,89,75,6.33,ID,1592546400
171,Port Elizabeth,-33.918,25.5701,61.0,53,0,11.97,ZA,1592546400
172,Bathsheba,13.2167,-59.5167,81.63,76,47,16.69,BB,1592546400
173,San Vicente,-26.6167,-54.1333,63.63,93,31,4.83,AR,1592546400
174,Saint Paul Harbor,57.79,-152.4072,50.34,74,44,7.25,US,1592546400
175,Kasongo-Lunda,-6.4667,16.8167,64.33,46,66,1.74,CD,1592546400
176,Port Alfred,-33.5906,26.891,62.33,53,0,6.98,ZA,1592546400
177,Kutum,14.2,24.6667,80.49,42,13,10.63,SD,1592546400
178,Cape Town,-33.9258,18.4232,63.14,39,0,8.37,ZA,1592546400
179,Cayenne,4.9333,-52.3333,77.41,93,87,2.68,GF,1592546400
180,East London,-33.0153,27.9116,60.51,53,0,6.98,ZA,1592546400
181,Fairbanks,64.8378,-147.7164,68.34,46,68,9.42,US,1592546400
182,Souillac,-20.5167,57.5167,70.77,75,86,19.37,MU,1592546400
183,Alanya,36.5438,31.9998,78.06,54,1,5.28,TR,1592546400
184,Port Hardy,50.6996,-127.4199,58.6,87,95,6.51,CA,1592546400
185,Sola,-13.8833,167.55,81.9,75,42,16.4,VU,1592546400
186,Te Anau,-45.4167,167.7167,42.17,70,0,0.81,NZ,1592546400
187,Faya,18.3851,42.4509,79.77,36,47,9.01,SA,1592546400
188,‘Āhuimanu,21.4447,-157.8378,80.65,56,45,19.3,US,1592546400
189,Baruun-Urt,46.6806,113.2792,88.0,25,68,15.82,MN,1592546400
190,Valerianovsk,58.76,59.5522,59.07,40,0,6.78,RU,1592546400
191,Kozhanka,49.9793,29.7381,69.89,71,59,8.37,UA,1592546400
192,Praia da Vitória,38.7333,-27.0667,62.44,84,18,7.18,PT,1592546400
193,Fortuna,40.5982,-124.1573,56.25,86,34,1.68,US,1592546400
194,Petropavlovsk-Kamchatskiy,53.0452,158.6483,48.04,84,76,9.46,RU,1592546400
195,Kumul,42.8,93.45,94.14,15,72,7.14,CN,1592546400
196,Rossville,39.3384,-76.4797,69.42,90,53,5.44,US,1592546400
197,Bima,-8.4667,118.7167,86.09,66,61,7.25,ID,1592546400
198,Chardara,41.2547,67.9692,84.24,24,0,9.01,KZ,1592546400
199,Bengkulu,-3.8004,102.2655,83.93,69,97,4.76,ID,1592546400
200,Catalão,-18.1658,-47.9464,59.92,81,80,5.95,BR,1592546400
201,Ilulissat,69.2167,-51.1,37.96,77,50,2.89,GL,1592546400
202,Vostok,46.4856,135.8833,59.47,79,87,4.79,RU,1592546400
203,Alofi,-19.0595,-169.9187,75.2,73,69,24.96,NU,1592546400
204,Tchibanga,-2.85,11.0333,70.18,92,100,1.19,GA,1592546400
205,Nuuk,64.1835,-51.7216,37.96,94,100,9.24,GL,1592546400
206,Bethel,41.3712,-73.414,65.55,95,62,2.24,US,1592546400
207,Cockburn Town,21.4612,-71.1419,82.24,80,9,18.52,TC,1592546400
208,Faanui,-16.4833,-151.75,80.74,73,8,2.64,PF,1592546400
209,Lerwick,60.1545,-1.1494,54.88,93,98,11.5,GB,1592546400
210,Pozhva,59.0912,56.0847,59.32,48,12,3.2,RU,1592546400
211,Lagoa,39.05,-27.9833,64.04,89,21,15.12,PT,1592546400
212,Sungai Penuh,-2.0833,101.3833,74.32,89,90,2.51,ID,1592546400
213,Adrar,20.5022,-10.0711,90.28,24,0,13.87,MR,1592546400
214,Mogadishu,2.0371,45.3438,80.08,81,91,18.25,SO,1592546400
215,Sitka,57.0531,-135.33,52.45,89,94,5.19,US,1592546400
216,Conceição da Barra,-18.5933,-39.7322,71.37,89,86,3.18,BR,1592546400
217,Katsina,12.9894,7.6006,79.68,62,22,11.52,NG,1592546400
218,Jutaí,-5.1833,-68.9,73.49,94,97,1.68,BR,1592546400
219,Radovitskiy,55.1282,39.7956,70.02,71,0,5.77,RU,1592546400
220,Bismarck,46.8083,-100.7837,56.01,64,66,7.85,US,1592546400
221,Abu Dhabi,24.4667,54.3667,88.7,64,25,2.37,AE,1592546400
222,Chui,-33.6971,-53.4616,53.44,92,88,6.46,UY,1592546400
223,Vestmanna,62.1564,-7.1664,49.55,95,80,7.0,FO,1592546400
224,Glazov,58.1394,52.6584,64.58,54,46,3.8,RU,1592546400
225,Atar,20.5169,-13.0499,89.62,25,0,11.25,MR,1592546400
226,Airai,-8.9266,125.4092,69.42,77,73,5.99,TL,1592546400
227,Araçuaí,-16.8497,-42.0703,67.93,79,92,1.66,BR,1592546400
228,Belyy Gorodok,56.965,37.5125,72.01,89,20,6.67,RU,1592546400
229,Xichang,27.8964,102.2634,80.35,62,86,2.08,CN,1592546400
230,Vanderhoof,54.0166,-124.0198,64.09,65,100,3.8,CA,1592546400
231,Wallaceburg,42.593,-82.3885,64.58,84,1,2.62,CA,1592546400
232,Hong Kong,22.2855,114.1577,87.94,70,82,11.95,HK,1592546400
233,Xinmin,41.9908,122.8253,90.54,32,0,2.33,CN,1592546400
234,Bandar-e Anzali,37.4727,49.4622,81.46,64,0,7.76,IR,1592546400
235,Sinnamary,5.3833,-52.95,77.14,87,100,4.38,GF,1592546400
236,Olafsvik,64.8945,-23.7142,47.84,80,100,12.21,IS,1592546400
237,Carnarvon,-24.8667,113.6333,74.35,45,0,4.7,AU,1592546400
238,Bubaque,11.2833,-15.8333,81.54,84,100,12.93,GW,1592546400
239,Lompoc,34.6391,-120.4579,56.43,88,0,0.45,US,1592546400
240,Hamilton,39.1834,-84.5333,66.9,88,27,1.19,US,1592546400
241,Kavieng,-2.5744,150.7967,84.9,67,12,0.43,PG,1592546400
242,Aksarka,66.5606,67.7975,49.8,54,59,6.49,RU,1592546400
243,Barrow,71.2906,-156.7887,43.68,75,90,7.99,US,1592546400
244,Zeya,53.75,127.2667,64.83,66,99,5.75,RU,1592546400
245,Isangel,-19.55,169.2667,75.6,76,86,11.9,VU,1592546400
246,Popondetta,-8.7537,148.2534,86.52,59,6,4.18,PG,1592546400
247,Znamenskoye,57.1281,73.8282,51.64,52,42,11.7,RU,1592546400
248,Cherskiy,68.75,161.3,80.67,27,2,10.65,RU,1592546400
249,Douglas,41.3,-96.167,62.69,93,87,9.55,US,1592546400
250,Zambezi,-13.5432,23.1047,52.3,69,0,8.57,ZM,1592546400
251,Isiro,2.7739,27.616,69.87,94,100,2.06,CD,1592546400
252,Grand Gaube,-20.0064,57.6608,72.59,73,92,26.04,MU,1592546400
253,Nortelândia,-14.4547,-56.8028,72.27,64,47,4.7,BR,1592546400
254,Hofn,64.2539,-15.2082,49.59,80,0,0.43,IS,1592546400
255,Baghdad,33.3406,44.4009,94.23,25,0,17.11,IQ,1592546400
256,Guangyuan,32.442,105.823,82.44,63,51,3.67,CN,1592546400
257,Dillon,34.4166,-79.3712,68.34,92,38,5.88,US,1592546400
258,Sovetskoye,52.2861,85.4131,59.86,84,95,8.21,RU,1592546400
259,Mungaa,-4.9667,34.8833,62.47,81,13,11.54,TZ,1592546400
260,Outlook,51.5001,-107.0513,49.03,72,68,8.99,CA,1592546400
261,Malabang,7.5903,124.0703,86.47,64,47,3.96,PH,1592546400
262,Sysert',56.4953,60.8192,59.05,50,8,4.25,RU,1592546400
263,Nanortalik,60.1432,-45.2371,37.67,85,86,6.53,GL,1592546400
264,Los Llanos de Aridane,28.6585,-17.9182,69.67,81,43,11.41,ES,1592546400
265,Kapoeta,4.7717,33.5903,76.19,82,14,4.88,SS,1592546400
266,Aklavik,68.2191,-135.0107,60.66,53,41,8.88,CA,1592546400
267,Jalu,29.0331,21.5482,84.15,26,0,5.61,LY,1592546400
268,Torbay,47.6666,-52.7314,56.66,83,78,18.41,CA,1592546400
269,Hualmay,-11.0964,-77.6139,61.12,85,16,5.79,PE,1592546400
270,Jandaia do Sul,-23.6031,-51.6433,59.7,97,38,5.35,BR,1592546400
271,Carutapera,-1.195,-46.02,74.26,91,98,5.79,BR,1592546400
272,Merauke,-8.4667,140.3333,82.18,72,87,17.58,ID,1592546400
273,Mananjary,-21.2167,48.3333,64.72,89,74,3.13,MG,1592546400
274,Mühlhausen,51.2167,10.45,59.7,94,100,4.99,DE,1592546400
275,Tashtagol,52.7657,87.8894,65.5,71,98,6.2,RU,1592546400
276,Ust-Nera,64.5667,143.2,80.31,26,69,5.86,RU,1592546400
277,Praia,14.9215,-23.5087,75.63,78,0,15.12,CV,1592546400
278,Westport,41.1415,-73.3579,66.67,90,18,3.56,US,1592546400
279,Sibu,2.3,111.8167,86.81,77,78,4.72,MY,1592546400
280,Porto-Novo,6.4965,2.6036,74.32,97,86,3.67,BJ,1592546400
281,Ürümqi,43.801,87.6005,79.41,27,15,16.17,CN,1592546400
282,Dourados,-22.2211,-54.8056,64.45,83,0,5.26,BR,1592546400
283,Huarmey,-10.0681,-78.1522,61.83,86,14,7.36,PE,1592546400
284,Ossora,59.2353,163.0719,60.89,62,8,5.68,RU,1592546400
285,Karasburg,-28.0167,18.75,53.56,42,0,12.17,NA,1592546400
286,Nelson Bay,-32.7167,152.15,64.8,58,20,10.74,AU,1592546400
287,Banda Aceh,5.5577,95.3222,88.14,64,56,7.76,ID,1592546400
288,Kefamenanu,-9.4467,124.4781,79.23,69,30,13.76,ID,1592546400
289,Svetlaya,46.5389,138.3297,54.28,77,55,10.09,RU,1592546400
290,Oktyabr'skiy,54.4815,53.471,60.76,62,0,10.49,RU,1592546400
291,Scarborough,54.2797,-0.4044,56.55,94,99,6.55,GB,1592546400
292,Pangnirtung,66.1451,-65.7125,36.34,81,97,1.5,CA,1592546400
293,Tapachula,14.9,-92.2833,76.28,86,100,5.39,MX,1592546400
294,Manthani,18.65,79.6667,84.11,72,100,10.6,IN,1592546400
295,Dunedin,-45.8742,170.5036,45.52,80,6,7.43,NZ,1592546400
296,Bilibino,68.0546,166.4372,77.61,26,0,12.21,RU,1592546400
297,Marsá Maţrūḩ,31.3525,27.2453,74.71,75,0,16.69,EG,1592546400
298,Riyadh,24.6877,46.7219,95.31,12,0,2.86,SA,1592546400
299,Chapais,49.7834,-74.8492,67.53,57,4,7.25,CA,1592546400
300,Kavaratti,10.5669,72.642,84.76,78,95,14.94,IN,1592546400
301,Ribeira Grande,38.5167,-28.7,64.27,90,61,10.76,PT,1592546400
302,Havøysund,70.9963,24.6622,42.39,79,87,19.44,NO,1592546400
303,Flin Flon,54.7682,-101.865,39.99,96,100,7.72,CA,1592546400
304,Methóni,36.8197,21.7049,72.55,78,0,14.65,GR,1592546400
305,Turbat,26.0023,63.044,97.3,55,53,6.2,PK,1592546400
306,Sandakan,5.8402,118.1179,86.79,74,68,5.68,MY,1592546400
307,Birnin Kebbi,12.4539,4.1975,83.43,62,77,9.84,NG,1592546400
308,Banjar,-8.19,114.9675,86.34,67,50,1.54,ID,1592546400
309,Soller,39.7662,2.7152,70.23,78,95,5.37,ES,1592546400
310,Grindavik,63.8424,-22.4338,48.92,84,87,21.05,IS,1592546400
311,Guerrero Negro,27.9769,-114.0611,63.28,83,0,15.48,MX,1592546400
312,Arrondissement de Narbonne,43.0833,2.8333,61.16,75,2,8.19,FR,1592546400
313,Kindu,-2.95,25.95,74.3,63,82,0.54,CD,1592546400
314,Rurrenabaque,-14.4413,-67.5278,74.79,82,90,0.85,BO,1592546400
315,Bilma,18.6853,12.9164,89.35,18,0,2.89,NE,1592546400
316,Lüderitz,-26.6481,15.1594,72.19,28,0,16.8,NA,1592546400
317,Sabang,5.8933,95.3214,84.72,72,59,9.73,ID,1592546400
318,Texarkana,33.4251,-94.0477,74.16,73,9,6.29,US,1592546400
319,Shimoda,34.6667,138.95,66.76,95,87,12.84,JP,1592546400
320,Dehlorān,32.6941,47.2679,101.64,11,0,4.07,IR,1592546400
321,Ekhabi,53.5102,142.9671,45.1,90,100,9.42,RU,1592546400
322,Bījār,35.8668,47.6051,76.71,23,0,1.36,IR,1592546400
323,Yuxia,34.0615,108.6291,90.19,54,97,3.71,CN,1592546400
324,Tandur,17.2333,77.5833,82.08,72,99,13.71,IN,1592546400
325,Nador,35.174,-2.9287,70.14,65,61,2.21,MA,1592546400
326,Muros,42.7762,-9.0603,55.56,88,47,4.05,ES,1592546400
327,Virginia Beach,36.8529,-75.978,68.22,87,46,7.47,US,1592546400
328,Vermilion,40.1667,-87.7506,69.12,76,50,2.64,US,1592546400
329,Ostrovnoy,68.0531,39.5131,45.57,81,100,17.69,RU,1592546400
330,College,64.8569,-147.8028,68.61,45,86,8.86,US,1592546400
331,Kodinsk,58.6881,99.1844,76.78,32,98,10.22,RU,1592546400
332,Dikson,73.5069,80.5464,32.83,97,100,13.6,RU,1592546400
333,Aksay,47.26,39.87,78.31,46,48,13.73,RU,1592546400
334,Holme,56.1138,10.1725,64.47,86,83,8.16,DK,1592546400
335,Saint-Augustin,51.226,-58.6502,52.66,91,100,11.7,CA,1592546400
336,Hrastnik,46.1461,15.0814,62.1,80,43,2.15,SI,1592546400
337,Bambanglipuro,-7.95,110.2833,83.39,73,50,18.81,ID,1592546400
338,La Seyne-sur-Mer,43.0982,5.8847,66.83,73,0,10.8,FR,1592546400
339,Gilbués,-9.8317,-45.3439,68.11,70,0,7.54,BR,1592546400
340,Mae Ramat,16.984,98.5166,78.67,87,87,2.17,TH,1592546400
341,Cooma,-36.2333,149.1333,55.36,54,24,6.58,AU,1592546400
342,Ojinaga,29.5667,-104.4167,87.28,26,12,5.46,MX,1592546400
343,Pompéu,-19.2244,-44.9353,55.04,90,8,3.22,BR,1592546400
344,Champerico,14.3,-91.9167,79.92,79,100,8.1,GT,1592546400
345,Baturaja,-4.1333,104.1667,85.17,69,97,2.59,ID,1592546400
346,Guánica,17.9716,-66.908,77.97,79,3,7.9,PR,1592546400
347,Eidfjord,60.4675,7.0719,74.64,64,89,5.03,NO,1592546400
348,Natal,-5.795,-35.2094,75.6,94,55,8.23,BR,1592546400
349,Portland,45.5234,-122.6762,68.83,56,61,3.89,US,1592546400
350,Kawalu,-7.3817,108.2082,76.15,89,98,3.27,ID,1592546400
351,Aden,12.7794,45.0367,88.16,73,13,2.77,YE,1592546400
352,Victoria Point,-27.5833,153.3,66.47,68,39,12.39,AU,1592546400
353,Kalakamati,-20.5929,27.3121,51.21,88,6,13.91,BW,1592546400
354,São João da Barra,-21.6403,-41.0511,68.14,88,60,10.31,BR,1592546400
355,Luebo,-5.35,21.4167,66.54,56,60,1.72,CD,1592546400
356,Balikpapan,-1.2675,116.8289,79.66,87,100,7.43,ID,1592546400
357,Sumbe,-11.2061,13.8437,70.88,68,0,7.07,AO,1592546400
358,Beringovskiy,63.05,179.3167,50.09,58,18,1.9,RU,1592546400
359,Ponta do Sol,32.6667,-17.1,66.25,73,11,3.42,PT,1592546400
360,Marabu,4.4148,114.0089,87.55,68,87,8.1,MY,1592546400
361,Christchurch,-43.5333,172.6333,44.65,90,97,3.83,NZ,1592546400
362,Guéret,46.1667,1.8667,50.09,99,89,4.0,FR,1592546400
363,Strezhevoy,60.7333,77.5889,50.83,54,56,15.28,RU,1592546400
364,Macao,22.2006,113.5461,87.87,73,45,13.78,MO,1592546400
365,Brownsville,25.9018,-97.4975,81.0,79,10,10.71,US,1592546400
366,Lac-Mégantic,45.5834,-70.8823,60.91,79,0,4.21,CA,1592546400
367,Asău,46.4333,26.4,63.12,87,86,3.11,RO,1592546400
368,Khasan,42.4308,130.6434,63.18,73,32,9.31,RU,1592546400
369,Laela,-8.5667,32.05,55.62,89,40,6.17,TZ,1592546400
370,Barreirinha,-2.7933,-57.07,75.52,90,57,1.52,BR,1592546400
371,Birjand,32.8663,59.2211,90.79,11,0,7.83,IR,1592546400
372,Severo-Kuril'sk,50.6789,156.125,43.99,84,98,13.35,RU,1592546400
373,Dhidhdhoo,6.8833,73.1,84.6,78,87,12.97,MV,1592546400
374,Ust'-Ilimsk,58.0006,102.6619,75.2,33,0,8.16,RU,1592546400
375,Vila,42.0304,-8.1588,46.06,96,24,1.95,PT,1592546400
376,Port Blair,11.6667,92.75,85.86,77,98,12.37,IN,1592546400
377,Codrington,-38.2667,141.9667,60.06,63,32,10.33,AU,1592546400
378,Sechelt,49.4664,-123.7694,62.24,77,79,2.37,CA,1592546400
379,Ilo,-17.6394,-71.3375,62.55,78,83,1.41,PE,1592546400
380,Mossamedes,-15.1961,12.1522,72.91,51,33,8.55,AO,1592546400
381,Yar-Sale,66.8333,70.8333,45.39,62,91,8.75,RU,1592546400
382,Isabela,6.7085,121.9711,86.14,72,87,2.59,PH,1592546400
383,Cap Malheureux,-19.9842,57.6142,72.72,73,90,25.81,MU,1592546400
384,Alta Floresta,-9.8756,-56.0861,70.9,75,43,4.88,BR,1592546400
385,Mumbwa,-14.9783,27.0619,54.05,83,0,7.05,ZM,1592546400
386,Dalbandin,28.8947,64.4101,106.84,8,0,20.38,PK,1592546400
387,Big Rapids,43.6981,-85.4837,60.21,83,1,1.36,US,1592546400
388,Camaná,-16.6228,-72.7111,62.46,79,80,4.25,PE,1592546400
389,Sechura,-5.5569,-80.8222,66.06,78,9,12.3,PE,1592546400
390,Hue,16.4667,107.6,91.6,62,53,10.51,VN,1592546400
391,Ulladulla,-35.35,150.4667,65.61,52,24,6.06,AU,1592546400
392,Ngorongoro,-3.2397,35.4875,52.66,95,84,7.34,TZ,1592546400
393,Terrace,54.5163,-128.6035,56.95,89,95,0.65,CA,1592546400
394,Narsaq,60.9167,-46.05,38.48,79,99,1.79,GL,1592546400
395,Gīdam,18.9833,81.4,87.91,67,98,9.31,IN,1592546400
396,Hasaki,35.7333,140.8333,67.96,94,87,13.82,JP,1592546400
397,Kenai,60.5544,-151.2583,51.87,74,94,16.91,US,1592546400
398,Taloda,21.5667,74.2167,93.02,59,67,15.05,IN,1592546400
399,Kuala Terengganu,5.3302,103.1408,87.82,68,59,4.61,MY,1592546400
400,Itapuranga,-15.5622,-49.9486,63.9,77,72,4.38,BR,1592546400
401,Barsovo,61.1667,73.1667,51.44,53,45,14.63,RU,1592546400
402,Balakhta,55.38,91.6,66.56,81,92,11.59,RU,1592546400
403,Weligama,5.9667,80.4167,86.77,75,21,14.99,LK,1592546400
404,Itaituba,-4.2761,-55.9836,76.86,77,57,1.5,BR,1592546400
405,Mora,11.0461,14.1401,83.62,56,94,2.73,CM,1592546400
406,Tevaitoa,-16.7833,-151.5,81.54,72,30,0.89,PF,1592546400
407,Evensk,61.95,159.2333,54.82,77,91,7.76,RU,1592546400
408,Paradise,36.0972,-115.1467,81.1,12,1,1.7,US,1592546400
409,San Rafael,-34.6177,-68.3301,50.79,47,21,13.56,AR,1592546400
410,Taoudenni,22.6783,-3.9836,95.32,17,18,13.94,ML,1592546400
411,Terekli-Mekteb,44.1671,45.8698,82.13,46,76,12.26,RU,1592546400
412,Cairns,-16.9167,145.7667,75.11,70,55,14.38,AU,1592546400
413,Lavrentiya,65.5833,-171.0,54.75,53,95,3.44,RU,1592546400
414,Vila Velha,-20.3297,-40.2925,69.62,91,14,5.55,BR,1592546400
415,Noumea,-22.2763,166.4572,72.9,75,21,13.8,NC,1592546400
416,Bahía Blanca,-38.7196,-62.2724,56.1,43,56,18.88,AR,1592546400
417,Baykit,61.67,96.37,76.33,29,93,12.44,RU,1592546400
418,Khāsh,28.2211,61.2158,93.69,12,0,3.96,IR,1592546400
419,Hambantota,6.1241,81.1185,89.65,67,17,21.88,LK,1592546400
420,Santo Antônio do Içá,-3.1022,-67.9397,73.18,97,81,1.23,BR,1592546400
421,Yefremov,53.1481,38.0992,72.12,86,61,8.5,RU,1592546400
422,Yerofey Pavlovich,53.9667,121.9667,53.17,90,100,8.81,RU,1592546400
423,Conceição das Alagoas,-19.9147,-48.3883,65.19,71,33,6.4,BR,1592546400
424,Qujing,25.4833,103.7833,76.96,73,67,12.01,CN,1592546400
425,Tianpeng,30.9866,103.9393,90.75,16,23,5.12,CN,1592546400
426,Oranjestad,12.524,-70.027,80.98,78,11,24.79,AW,1592546400
427,Mapiripán,2.8892,-72.1256,72.18,95,83,3.71,CO,1592546400
428,Salalah,17.0151,54.0924,87.6,73,80,6.22,OM,1592546400
429,Gander,48.9682,-54.5906,57.88,99,94,6.89,CA,1592546400
430,Alihe,50.5667,123.7167,71.1,52,88,7.29,CN,1592546400
431,Navrongo,10.8956,-1.0921,76.78,81,100,5.88,GH,1592546400
432,Firozpur,30.9167,74.6,112.78,22,20,12.15,IN,1592546400
433,Assiut,27.181,31.1837,76.57,46,0,13.38,EG,1592546400
434,Mbandaka,0.0487,18.2603,70.7,68,83,2.57,CD,1592546400
435,Santa Maria,-29.6842,-53.8069,65.3,82,79,1.05,BR,1592546400
436,Tiarei,-17.5333,-149.3333,80.64,79,57,4.68,PF,1592546400
437,Saint Paul,44.9444,-93.0933,68.65,91,49,7.29,US,1592546400
438,Fairview,40.8126,-73.999,68.04,90,74,4.65,US,1592546400
439,Brae,60.3964,-1.353,55.2,93,100,9.86,GB,1592546400
440,Medford,42.3265,-122.8756,69.13,53,15,0.78,US,1592546400
441,Ugoofaaru,5.6667,73.0,84.58,78,30,10.58,MV,1592546400
442,North Bend,43.4065,-124.2243,56.66,88,17,8.23,US,1592546400
443,Maningrida,-12.0667,134.2667,83.01,63,84,7.83,AU,1592546400
444,Sovetskiy,61.3614,63.5842,57.96,40,20,4.32,RU,1592546400
445,Jiblah,13.9216,44.1467,76.46,41,100,2.84,YE,1592546400
446,Berlevåg,70.8578,29.0864,42.82,79,85,26.22,NO,1592546400
447,Goundam,16.4145,-3.6708,93.7,28,97,15.35,ML,1592546400
448,Ayan,56.45,138.1667,45.61,90,79,6.04,RU,1592546400
449,Tazovsky,67.4667,78.7,45.14,60,8,11.65,RU,1592546400
450,Chifeng,42.2683,118.9636,89.64,24,2,6.15,CN,1592546400
451,Ponferrada,42.5466,-6.5962,53.1,83,9,0.29,ES,1592546400
452,Solwezi,-12.1688,26.3894,51.89,85,0,6.31,ZM,1592546400
453,Åmot,59.5714,7.9877,68.56,71,98,6.24,NO,1592546400
454,Saryg-Sep,51.5,95.6,70.29,50,64,6.2,RU,1592546400
455,Santiago,-33.4569,-70.6483,53.67,68,100,3.8,CL,1592546400
456,Saint Anthony,45.0205,-93.218,68.7,86,95,7.56,US,1592546400
457,Farkhor,37.4922,69.4036,92.05,13,0,1.79,TJ,1592546400
458,Oranjemund,-28.55,16.4333,67.35,33,0,16.82,NA,1592546400
459,Seredeyskiy,54.0507,35.2318,74.61,83,42,4.56,RU,1592546400
460,Pemba,-12.974,40.5178,73.45,86,16,14.03,MZ,1592546400
461,Vanimo,-2.6741,141.3028,85.23,67,24,6.46,PG,1592546400
462,Leningradskiy,69.3833,178.4167,45.66,59,10,6.11,RU,1592546400
463,Pervomayskiy,53.2485,40.2871,69.3,88,11,9.17,RU,1592546400
464,Viedma,-40.8135,-62.9967,56.07,52,98,16.58,AR,1592546400
465,Cedar City,37.6775,-113.0619,56.79,32,5,4.09,US,1592546400
466,Mandalgovi,45.7625,106.2708,89.08,13,90,19.13,MN,1592546400
467,Arlit,18.7369,7.3853,89.8,15,0,8.16,NE,1592546400
468,Claresholm,50.0333,-113.5852,51.64,82,87,3.38,CA,1592546400
469,Sulangan,11.1373,123.7228,82.27,68,100,4.63,PH,1592546400
470,Rāybāg,16.4833,74.7833,84.42,66,98,16.44,IN,1592546400
471,Tsiroanomandidy,-18.7667,46.0333,63.34,67,0,4.81,MG,1592546400
472,Vestmannaeyjar,63.4427,-20.2734,48.7,76,89,11.45,IS,1592546400
473,Mangrūl Pīr,20.3167,77.35,88.84,63,91,16.82,IN,1592546400
474,Lufilufi,-13.8745,-171.5986,81.41,78,86,22.75,WS,1592546400
475,Thunder Bay,48.4001,-89.3168,60.03,89,80,2.55,CA,1592546400
476,Wuwei,37.9281,102.6414,89.73,17,24,6.55,CN,1592546400
477,Yangliuqing,39.1375,116.9997,94.23,27,3,10.0,CN,1592546400
478,Tual,-5.6667,132.75,81.37,81,7,17.07,ID,1592546400
479,Zvishavane,-20.3267,30.0665,52.97,93,100,7.76,ZW,1592546400
480,Nassau,40.7507,-73.5829,67.53,93,10,5.68,US,1592546400
481,Turukhansk,65.8167,87.9833,62.17,58,95,11.81,RU,1592546400
482,Roebourne,-20.7833,117.1333,83.84,31,0,10.69,AU,1592546400
483,Padang,-0.9492,100.3543,84.85,67,89,4.92,ID,1592546400
484,Klyuchi,52.2667,79.1667,59.77,60,100,10.02,RU,1592546400
485,Half Moon Bay,37.4636,-122.4286,62.85,78,47,2.04,US,1592546400
486,Port Macquarie,-31.4333,152.9167,65.26,68,44,6.78,AU,1592546400
487,Mindelo,16.8901,-24.9804,74.44,78,10,21.05,CV,1592546400
488,Vysokogornyy,50.1167,139.15,50.29,87,100,3.24,RU,1592546400
489,Acajutla,13.5928,-89.8275,79.97,89,100,5.77,SV,1592546400
490,Tokur,53.1333,132.9,58.53,60,93,6.38,RU,1592546400
491,Madimba,-10.4,40.3333,76.23,75,20,13.71,TZ,1592546400
492,Turinskaya Sloboda,57.6232,64.3858,56.44,44,4,8.08,RU,1592546400
493,Tulum,20.2167,-87.4667,78.66,91,26,5.26,MX,1592546400
494,Sept-Îles,50.2001,-66.3821,66.02,77,20,5.12,CA,1592546400
495,Pyapon,16.2833,95.6833,82.33,81,100,5.53,MM,1592546400
496,Satānā,20.5833,74.2,86.07,67,99,14.16,IN,1592546400
497,Umluj,25.0213,37.2685,86.25,51,0,7.83,SA,1592546400
498,Nagato,34.3833,131.2,73.31,73,86,19.84,JP,1592546400
499,San Quintín,30.4833,-115.95,61.63,78,0,5.57,MX,1592546400
500,Beloha,-25.1667,45.05,68.74,72,4,18.3,MG,1592546400
501,Phenix City,32.471,-85.0008,71.42,74,35,1.32,US,1592546400
502,Caraquet,47.7941,-64.9386,76.87,55,1,8.7,CA,1592546400
503,Miramar,25.9873,-80.2323,82.51,84,56,10.54,US,1592546400
504,Kiryat Gat,31.61,34.7642,75.04,36,53,11.32,IL,1592546400
505,Micheweni,-4.9667,39.8333,80.6,72,0,16.96,TZ,1592546400
506,Khovd,48.0056,91.6419,73.27,21,89,2.57,MN,1592546400
507,Shama,33.6102,104.2852,70.11,60,87,5.86,CN,1592546400
508,Henties Bay,-22.116,14.2845,73.96,29,0,25.52,NA,1592546400
509,Ladushkin,54.5703,20.171,69.24,89,0,6.53,RU,1592546400
510,Beira,-19.8436,34.8389,64.94,91,76,12.46,MZ,1592546400
511,Udachny,66.4167,112.4,73.22,51,73,10.58,RU,1592546400
512,Inongo,-1.95,18.2667,68.77,63,45,2.77,CD,1592546400
513,Oriximiná,-1.7656,-55.8661,75.16,90,37,2.73,BR,1592546400
514,Patnanungan,14.7833,122.1833,85.03,71,76,4.5,PH,1592546400
515,Benito Juarez,19.385,-99.165,66.9,49,27,3.91,MX,1592546400
516,Nandyāl,15.4833,78.4833,91.83,52,99,15.1,IN,1592546400
517,Altay,47.8667,88.1167,72.7,34,0,11.48,CN,1592546400
518,Udarnyy,54.3409,42.8611,69.17,77,0,7.56,RU,1592546400
519,Vila Franca do Campo,37.7167,-25.4333,62.87,82,43,5.61,PT,1592546400
520,Dabakala,8.3667,-4.4333,70.14,97,100,2.77,CI,1592546400
521,Lorengau,-2.0226,147.2712,83.77,76,12,4.81,PG,1592546400
522,Forsytheganj,52.6333,29.7333,71.49,85,56,4.59,BY,1592546400
523,Mets Masrik,40.2183,45.7681,62.62,67,0,12.15,AM,1592546400
524,Mankono,8.0586,-6.1897,70.32,97,100,2.59,CI,1592546400
525,Seoul,37.5683,126.9778,87.21,43,48,2.8,KR,1592546400
526,Sangar,63.9242,127.4739,76.48,38,63,7.0,RU,1592546400
527,Santa Fe,-31.6333,-60.7,52.02,94,29,7.29,AR,1592546400
528,Quatre Cocos,-20.2078,57.7625,71.49,74,87,21.12,MU,1592546400
529,Samfya,-11.3649,29.5565,57.88,81,0,8.28,ZM,1592546400
530,Novo Aripuanã,-5.1206,-60.3797,77.32,77,79,0.85,BR,1592546400
531,Cidreira,-30.1811,-50.2056,65.35,93,42,4.59,BR,1592546400
532,Caramay,10.1815,119.236,86.81,66,100,6.96,PH,1592546400
533,Bagotville,-28.9833,153.4167,63.45,74,64,6.22,AU,1592546400
534,Kintampo,8.0563,-1.7306,69.1,99,99,3.6,GH,1592546400
535,Dingle,10.9995,122.6711,84.88,68,100,3.58,PH,1592546400
536,Aripuanã,-9.1667,-60.6333,73.26,70,24,2.35,BR,1592546400
537,Levice,48.2156,18.6071,62.74,88,99,9.19,SK,1592546400
538,Dareda,-4.2167,35.55,61.14,85,81,5.41,TZ,1592546400
539,Juegang,32.3174,121.1855,78.46,67,30,7.81,CN,1592546400
540,Price,39.5994,-110.8107,62.04,33,81,9.35,US,1592546400
541,Dolinsk,47.35,142.8,49.64,84,69,12.01,RU,1592546400
542,Sabzawār,36.2126,57.6819,89.91,14,0,9.24,IR,1592546400
543,Constantine,36.365,6.6147,69.03,70,37,3.36,DZ,1592546400
544,Kulu,39.0951,33.0799,66.36,63,61,9.66,TR,1592546400
545,Ipixuna,-1.7625,-48.8043,74.73,92,79,3.98,BR,1592546400
546,Margate,51.3813,1.3862,58.68,90,42,12.57,GB,1592546400
547,Chapada dos Guimarães,-15.4606,-55.7497,70.05,70,99,7.49,BR,1592546400
548,Yangi Marg`ilon,40.4272,71.7189,87.3,22,0,4.18,UZ,1592546400
549,Kenitra,34.261,-6.5802,65.34,75,25,2.33,MA,1592546400
550,Heishan,41.6892,122.1128,91.98,29,0,3.47,CN,1592546400
551,Chernyshevskiy,63.0128,112.4714,66.67,51,88,4.99,RU,1592546400
552,Ostrów Mazowiecka,52.8024,21.8951,69.46,84,23,7.63,PL,1592546400
553,Tongren,27.7172,109.1853,80.06,79,97,4.23,CN,1592546400
554,Korla,41.7597,86.1469,85.82,21,94,5.82,CN,1592546400
555,Lianyuan,27.6883,111.6642,80.92,82,95,1.74,CN,1592546400
556,Vicuña,-30.0319,-70.7081,58.66,49,85,4.63,CL,1592546400
557,Lahad Datu,5.0268,118.327,89.22,62,78,4.36,MY,1592546400
558,Río Gallegos,-51.6226,-69.2181,35.33,94,86,7.38,AR,1592546400
559,Flinders,-34.5833,150.8552,65.16,61,21,10.36,AU,1592546400
560,Iskateley,67.6803,53.1512,56.21,70,100,14.27,RU,1592546400
561,Tigil',57.8,158.6667,63.64,64,78,5.97,RU,1592546400
